{
  "visitList": [
    {
      "id": "2-tones-brewing-co-whitehall",
      "name": "2 Tones Brewing Co.",
      "brewery_type": "micro",
      "street": "4539 E Broad St",
      "address_2": null,
      "address_3": null,
      "city": "Whitehall",
      "state": "Ohio",
      "county_province": null,
      "postal_code": "43213-1308",
      "country": "United States",
      "longitude": "-82.9118174",
      "latitude": "40.0030689",
      "phone": null,
      "website_url": "http://www.2tonesbrewingco.com",
      "updated_at": "2021-10-23T02:24:55.243Z",
      "created_at": "2021-10-23T02:24:55.243Z"
    },
    {
      "id": "4kd-crick-brewery-defiance",
      "name": "4kd Crick Brewery",
      "brewery_type": "brewpub",
      "street": "211 Carpenter Rd",
      "address_2": null,
      "address_3": null,
      "city": "Defiance",
      "state": "Ohio",
      "county_province": null,
      "postal_code": "43512-1718",
      "country": "United States",
      "longitude": "-84.341647",
      "latitude": "41.296252",
      "phone": "4199562863",
      "website_url": "http://Www.4kdcrickbrewery.com",
      "updated_at": "2021-10-23T02:24:55.243Z",
      "created_at": "2021-10-23T02:24:55.243Z"
    },
    {
      "id": "actual-brewing-company-llc-columbus",
      "name": "Actual Brewing Company, LLC",
      "brewery_type": "micro",
      "street": "655 N James Rd",
      "address_2": null,
      "address_3": null,
      "city": "Columbus",
      "state": "Ohio",
      "county_province": null,
      "postal_code": "43219-1837",
      "country": "United States",
      "longitude": "-82.9080986",
      "latitude": "39.9868523",
      "phone": "6146363825",
      "website_url": "http://wwww.actualbeer.com",
      "updated_at": "2021-10-23T02:24:55.243Z",
      "created_at": "2021-10-23T02:24:55.243Z"
    },
    {
      "id": "akronym-brewing-llc-akron",
      "name": "Akronym Brewing LLC",
      "brewery_type": "micro",
      "street": "58 E Market St",
      "address_2": null,
      "address_3": null,
      "city": "Akron",
      "state": "Ohio",
      "county_province": null,
      "postal_code": "4430",
      "country": "United States",
      "longitude": "-81.51645882",
      "latitude": "41.08512193",
      "phone": "3306208274",
      "website_url": "http://www.akronymbrewing.com",
      "updated_at": "2021-10-23T02:24:55.243Z",
      "created_at": "2021-10-23T02:24:55.243Z"
    },
    {
      "id": "12-gates-brewing-company-williamsville",
      "name": "12 Gates Brewing Company",
      "brewery_type": "brewpub",
      "street": "80 Earhart Dr Ste 20",
      "address_2": null,
      "address_3": null,
      "city": "Williamsville",
      "state": "New York",
      "county_province": null,
      "postal_code": "14221-7804",
      "country": "United States",
      "longitude": null,
      "latitude": null,
      "phone": "7169066600",
      "website_url": "http://www.12gatesbrewing.com",
      "updated_at": "2021-10-23T02:24:55.243Z",
      "created_at": "2021-10-23T02:24:55.243Z"
    },
    {
      "id": "bad-tom-smith-brewing-cincinnati",
      "name": "Bad Tom Smith Brewing",
      "brewery_type": "micro",
      "street": "4720 Eastern Ave",
      "address_2": null,
      "address_3": null,
      "city": "Cincinnati",
      "state": "Ohio",
      "county_province": null,
      "postal_code": "45226-1893",
      "country": "United States",
      "longitude": "-84.41803086",
      "latitude": "39.11995755",
      "phone": "5138714677",
      "website_url": "http://www.badtomsmithbrewing.com",
      "updated_at": "2021-10-23T02:24:55.243Z",
      "created_at": "2021-10-23T02:24:55.243Z"
    },
    {
      "id": "aqueduct-brewing-akron",
      "name": "Aqueduct Brewing",
      "brewery_type": "micro",
      "street": "529 Grant St Ste 106",
      "address_2": null,
      "address_3": null,
      "city": "Akron",
      "state": "Ohio",
      "county_province": null,
      "postal_code": "44311-1184",
      "country": "United States",
      "longitude": "-81.51788487",
      "latitude": "41.0698532",
      "phone": "3306066583",
      "website_url": "http://www.aqueductbrewing.shutterfly.com",
      "updated_at": "2021-10-23T02:24:55.243Z",
      "created_at": "2021-10-23T02:24:55.243Z"
    }
  ]
}